{"name":"IKEA vestigingen","total":13,"items": [{"name":"IKEA Amersfoort","long":"52.1849894","lat":"5.4152234"},{"name":"IKEA Amsterdam","long":"52.302803","lat":"4.9476363"},{"name":"IKEA Berendrecht","long":"51.8494744","lat":"4.5119944"},{"name":"IKEA Breda","long":"51.580344","lat":"4.7285252"},{"name":"IKEA Delft","long":"52.013027","lat":"4.378007"},{"name":"IKEA Duiven","long":"51.9660508","lat":"5.9963024"},{"id":"7","name":"IKEA Eindhoven","long":"51.4981006","lat":"5.4707481"},{"id":"8","name":"IKEA Groningen","long":"53.217558","lat":"6.586936"},{"id":"9","name":"IKEA Haarlem","long":"52.3846541","lat":"4.6690981"},{"id":"10","name":"IKEA Heerlen","long":"50.8995551","lat":"5.9450748"},{"id":"11","name":"IKEA Hengelo","long":"52.287644","lat":"6.7691131"},{"id":"12","name":"IKEA Utrecht","long":"52.0619327","lat":"5.0997271"},{"id":"13","name":"IKEA Zwolle","long":"52.5326736","lat":"6.1621989"}]}
